{"data":[{"id":"vje7WLVv-1q6iMMBK1l8RQ","alias":"james-coffee-san-diego-7","name":"James Coffee","image_url":"https://s3-media2.fl.yelpcdn.com/bphoto/cI3XUWSLzP5OwfqOEqxQCQ/o.jpg","is_closed":false,"url":"https://www.yelp.com/biz/james-coffee-san-diego-7?adjust_creative=ccFTQ4kQwT-jEuAFI_1vHw&utm_campaign=yelp_api_v3&utm_medium=api_v3_business_search&utm_source=ccFTQ4kQwT-jEuAFI_1vHw","review_count":681,"categories":[{"alias":"coffeeroasteries","title":"Coffee Roasteries"}],"rating":4.5,"coordinates":{"latitude":32.72922,"longitude":-117.17037},"transactions":["delivery"],"price":"$","location":{"address1":"2355 India St","address2":null,"address3":"","city":"San Diego","zip_code":"92101","country":"US","state":"CA","display_address":["2355 India St","San Diego, CA 92101"]},"phone":"+16197567770","display_phone":"(619) 756-7770","distance":2203.3830938077704},{"id":"P49OGoRA5fyO-db02-mOBQ","alias":"moniker-coffee-company-san-diego","name":"Moniker Coffee Company","image_url":"https://s3-media1.fl.yelpcdn.com/bphoto/5TGIMsVhV2nGQdL2cAtFeQ/o.jpg","is_closed":false,"url":"https://www.yelp.com/biz/moniker-coffee-company-san-diego?adjust_creative=ccFTQ4kQwT-jEuAFI_1vHw&utm_campaign=yelp_api_v3&utm_medium=api_v3_business_search&utm_source=ccFTQ4kQwT-jEuAFI_1vHw","review_count":333,"categories":[{"alias":"coffee","title":"Coffee & Tea"},{"alias":"breakfast_brunch","title":"Breakfast & Brunch"}],"rating":4.5,"coordinates":{"latitude":32.74097,"longitude":-117.21124},"transactions":["delivery"],"price":"$$","location":{"address1":"2860 Sims Rd","address2":"","address3":"","city":"San Diego","zip_code":"92106","country":"US","state":"CA","display_address":["2860 Sims Rd","San Diego, CA 92106"]},"phone":"+16192559118","display_phone":"(619) 255-9118","distance":1858.6739008534664},{"id":"_ba4ltk4d7bKFW2eg9Ibxg","alias":"coava-coffee-roasters-san-diego","name":"Coava Coffee Roasters","image_url":"https://s3-media3.fl.yelpcdn.com/bphoto/QklxAlPE_qa_XXq_xmjBWQ/o.jpg","is_closed":false,"url":"https://www.yelp.com/biz/coava-coffee-roasters-san-diego?adjust_creative=ccFTQ4kQwT-jEuAFI_1vHw&utm_campaign=yelp_api_v3&utm_medium=api_v3_business_search&utm_source=ccFTQ4kQwT-jEuAFI_1vHw","review_count":311,"categories":[{"alias":"coffee","title":"Coffee & Tea"},{"alias":"coffeeroasteries","title":"Coffee Roasteries"}],"rating":4.5,"coordinates":{"latitude":32.7159522723754,"longitude":-117.16724618918},"transactions":["delivery"],"price":"$$","location":{"address1":"400 W Broadway","address2":null,"address3":"","city":"San Diego","zip_code":"92101","country":"US","state":"CA","display_address":["400 W Broadway","San Diego, CA 92101"]},"phone":"+18588591782","display_phone":"(858) 859-1782","distance":3141.5833452684233},{"id":"tauG5lbb8BDZaAcT9C-F8w","alias":"portal-coffee-san-diego-2","name":"Portal Coffee","image_url":"https://s3-media3.fl.yelpcdn.com/bphoto/cYcsDuUIw3TIYxtNXvj0Ng/o.jpg","is_closed":false,"url":"https://www.yelp.com/biz/portal-coffee-san-diego-2?adjust_creative=ccFTQ4kQwT-jEuAFI_1vHw&utm_campaign=yelp_api_v3&utm_medium=api_v3_business_search&utm_source=ccFTQ4kQwT-jEuAFI_1vHw","review_count":84,"categories":[{"alias":"coffee","title":"Coffee & Tea"}],"rating":5,"coordinates":{"latitude":32.72065,"longitude":-117.17067},"transactions":[],"price":"$","location":{"address1":"1495 Pacific Hwy","address2":"","address3":null,"city":"San Diego","zip_code":"92101","country":"US","state":"CA","display_address":["1495 Pacific Hwy","San Diego, CA 92101"]},"phone":"","display_phone":"","distance":2562.622225026539},{"id":"83eJFhXX_JbHfqWdKTKl2g","alias":"bird-rock-coffee-roasters-san-diego","name":"Bird Rock Coffee Roasters","image_url":"https://s3-media3.fl.yelpcdn.com/bphoto/anwuobt0CZFvOz7Ka-EOfA/o.jpg","is_closed":false,"url":"https://www.yelp.com/biz/bird-rock-coffee-roasters-san-diego?adjust_creative=ccFTQ4kQwT-jEuAFI_1vHw&utm_campaign=yelp_api_v3&utm_medium=api_v3_business_search&utm_source=ccFTQ4kQwT-jEuAFI_1vHw","review_count":388,"categories":[{"alias":"coffeeroasteries","title":"Coffee Roasteries"}],"rating":4.5,"coordinates":{"latitude":32.7279698,"longitude":-117.170909},"transactions":[],"price":"$","location":{"address1":"2295 Kettner Blvd","address2":"","address3":"","city":"San Diego","zip_code":"92101","country":"US","state":"CA","display_address":["2295 Kettner Blvd","San Diego, CA 92101"]},"phone":"+18585511707","display_phone":"(858) 551-1707","distance":2193.5338158108593},{"id":"OML2HDJHb2g7dLvQrEh1EA","alias":"cafe-bassam-san-diego","name":"Cafe Bassam","image_url":"https://s3-media2.fl.yelpcdn.com/bphoto/gSm0QagWzkelcBNr_T1LVA/o.jpg","is_closed":false,"url":"https://www.yelp.com/biz/cafe-bassam-san-diego?adjust_creative=ccFTQ4kQwT-jEuAFI_1vHw&utm_campaign=yelp_api_v3&utm_medium=api_v3_business_search&utm_source=ccFTQ4kQwT-jEuAFI_1vHw","review_count":1067,"categories":[{"alias":"coffee","title":"Coffee & Tea"}],"rating":4,"coordinates":{"latitude":32.7374099,"longitude":-117.16078},"transactions":["pickup","delivery"],"price":"$$","location":{"address1":"3088 5th Ave","address2":"","address3":"","city":"San Diego","zip_code":"92103","country":"US","state":"CA","display_address":["3088 5th Ave","San Diego, CA 92103"]},"phone":"+16195570173","display_phone":"(619) 557-0173","distance":3080.565588680362},{"id":"Xxg8BRP8aS1pq9yH0sSLmg","alias":"heartwork-coffee-bar-san-diego","name":"Heartwork Coffee Bar","image_url":"https://s3-media1.fl.yelpcdn.com/bphoto/RQ6kqYL4T_9YAUFbBoHf4Q/o.jpg","is_closed":false,"url":"https://www.yelp.com/biz/heartwork-coffee-bar-san-diego?adjust_creative=ccFTQ4kQwT-jEuAFI_1vHw&utm_campaign=yelp_api_v3&utm_medium=api_v3_business_search&utm_source=ccFTQ4kQwT-jEuAFI_1vHw","review_count":351,"categories":[{"alias":"coffee","title":"Coffee & Tea"},{"alias":"bakeries","title":"Bakeries"}],"rating":4.5,"coordinates":{"latitude":32.7494107758449,"longitude":-117.171222550076},"transactions":["delivery"],"price":"$","location":{"address1":"3993 Goldfinch St","address2":null,"address3":"","city":"San Diego","zip_code":"92103","country":"US","state":"CA","display_address":["3993 Goldfinch St","San Diego, CA 92103"]},"phone":"+16192933300","display_phone":"(619) 293-3300","distance":2687.683155381048},{"id":"CSF_Ml0lX93-toIlkzT-Rg","alias":"moe-coffee-san-diego","name":"Moe Coffee","image_url":"https://s3-media3.fl.yelpcdn.com/bphoto/6nKims5JOXN4MZ32jSGW4w/o.jpg","is_closed":false,"url":"https://www.yelp.com/biz/moe-coffee-san-diego?adjust_creative=ccFTQ4kQwT-jEuAFI_1vHw&utm_campaign=yelp_api_v3&utm_medium=api_v3_business_search&utm_source=ccFTQ4kQwT-jEuAFI_1vHw","review_count":76,"categories":[{"alias":"coffee","title":"Coffee & Tea"}],"rating":4.5,"coordinates":{"latitude":32.7312944,"longitude":-117.1698944},"transactions":[],"location":{"address1":"2542 State St","address2":null,"address3":"","city":"San Diego","zip_code":"92101","country":"US","state":"CA","display_address":["2542 State St","San Diego, CA 92101"]},"phone":"+16195104972","display_phone":"(619) 510-4972","distance":2200.577213170736}]}